City,Lat,Lng,Max Temp,Humidity,Cloudiness,Wind Speed,Country,Date
babushkin,51.71,105.86,62.024000000000015,66,73,1.78,RU,2020-08-20 19:11:15
butaritari,3.07,172.79,82.83200000000002,73,98,5.15,KI,2020-08-20 19:11:15
rikitea,-23.12,-134.97,66.57800000000006,80,100,11.69,PF,2020-08-20 19:11:15
ushuaia,-54.8,-68.3,41.0,80,75,5.1,AR,2020-08-20 19:11:15
mataura,-46.19,168.86,48.00200000000008,98,100,1.34,NZ,2020-08-20 19:11:16
jamestown,42.1,-79.24,73.4,49,1,2.6,US,2020-08-20 19:06:35
san-pedro,4.75,-6.64,74.55200000000008,87,42,4.15,CI,2020-08-20 19:11:16
sur,22.57,59.53,91.13000000000004,51,97,2.5,OM,2020-08-20 19:11:16
kapaa,22.08,-159.32,84.2,70,75,6.2,US,2020-08-20 19:09:42
saint george,37.1,-113.58,107.6,9,1,6.2,US,2020-08-20 19:08:40
jasper,37.2,-94.35,86.0,37,1,4.1,US,2020-08-20 19:11:17
flinders,-34.58,150.86,60.008,54,19,6.26,AU,2020-08-20 19:11:18
pundaguitan,6.37,126.17,82.85,75,1,2.69,PH,2020-08-20 19:11:18
padang,-0.95,100.35,78.96200000000006,74,53,1.99,ID,2020-08-20 19:08:58
cherskiy,68.75,161.3,44.780000000000044,59,10,5.69,RU,2020-08-20 19:11:18
dikson,73.51,80.55,43.64600000000005,79,0,7.49,RU,2020-08-20 19:11:18
vaini,-21.2,-175.2,78.8,88,75,3.6,TO,2020-08-20 19:11:19
bilma,18.69,12.92,92.93000000000004,18,0,3.66,NE,2020-08-20 19:11:19
taoudenni,22.68,-3.98,99.32000000000006,13,0,3.43,ML,2020-08-20 19:11:19
barrow,71.29,-156.79,46.4,87,90,3.6,US,2020-08-20 19:11:19
airai,-8.93,125.41,70.17800000000007,30,2,1.82,TL,2020-08-20 19:11:20
pafos,34.77,32.42,71.6,68,20,3.6,CY,2020-08-20 19:11:20
hilo,19.73,-155.09,82.4,65,90,3.6,US,2020-08-20 19:06:45
cape town,-33.93,18.42,57.00200000000008,100,3,3.1,ZA,2020-08-20 19:02:21
madimba,-10.4,40.33,69.87200000000004,89,49,3,TZ,2020-08-20 19:11:21
gari,59.43,62.35,47.33600000000007,99,31,2.54,RU,2020-08-20 19:11:21
saint anthony,45.02,-93.22,82.99400000000007,58,75,5.7,US,2020-08-20 19:11:22
diffa,13.32,12.61,79.91600000000001,70,100,4.68,NE,2020-08-20 19:11:22
pombia,45.65,8.63,73.00400000000005,83,8,2.1,IT,2020-08-20 19:11:22
port alfred,-33.59,26.89,58.766000000000005,77,100,4.37,ZA,2020-08-20 19:11:23
bredasdorp,-34.53,20.04,46.4,93,19,2.1,ZA,2020-08-20 19:11:23
mahajanga,-15.72,46.32,69.8,77,46,1.5,MG,2020-08-20 19:11:23
cajamarca,-7.16,-78.5,55.13000000000004,61,100,1.06,PE,2020-08-20 19:11:23
inta,66.03,60.17,47.87600000000009,94,58,2.81,RU,2020-08-20 19:11:24
hare bay,48.85,-54.01,64.4,63,75,6.2,CA,2020-08-20 19:11:24
georgetown,5.41,100.34,82.4,94,20,1.42,MY,2020-08-20 19:07:16
codrington,-38.27,141.97,48.2,79,63,8.63,AU,2020-08-20 19:11:25
berdigestyakh,62.1,126.7,54.391999999999996,46,0,2.15,RU,2020-08-20 19:11:25
nikolskoye,59.7,30.79,55.4,82,0,1,RU,2020-08-20 19:11:25
albany,42.6,-73.97,73.99400000000007,57,7,0.9,US,2020-08-20 19:07:19
tuktoyaktuk,69.45,-133.04,57.2,71,75,4.6,CA,2020-08-20 19:11:25
bethel,41.37,-73.41,73.4,43,1,2.1,US,2020-08-20 19:07:17
punta arenas,-53.15,-70.92,42.8,81,75,6.7,CL,2020-08-20 19:11:00
kazerun,29.62,51.65,81.06800000000008,18,0,0.34,IR,2020-08-20 19:11:26
shakiso,5.75,38.92,60.22400000000001,85,95,0.71,ET,2020-08-20 19:07:05
isangel,-19.55,169.27,82.4,61,20,2.6,VU,2020-08-20 19:11:27
carutapera,-1.2,-46.02,77.81000000000009,80,0,3.72,BR,2020-08-20 19:11:27
homer,59.64,-151.55,66.2,63,40,2.6,US,2020-08-20 19:11:27
orzhytsya,49.79,32.7,66.11000000000008,59,31,3.18,UA,2020-08-20 19:11:27
berlevag,70.86,29.09,48.23600000000007,79,33,3.13,NO,2020-08-20 19:11:28
mashhad,36.3,59.61,69.8,28,0,2.1,IR,2020-08-20 19:11:28
yanliang,34.66,109.23,69.99800000000002,88,20,8,CN,2020-08-20 19:11:28
severo-kurilsk,50.68,156.12,54.64400000000008,73,63,8.48,RU,2020-08-20 19:11:28
esperance,-33.87,121.9,46.4,100,40,1.5,AU,2020-08-20 19:11:29
lagoa,39.05,-27.98,69.74600000000005,80,46,6.74,PT,2020-08-20 19:12:30
sept-iles,50.2,-66.38,66.2,42,20,4.1,CA,2020-08-20 19:12:30
busselton,-33.65,115.33,42.008,86,21,2.95,AU,2020-08-20 19:12:30
namibe,-15.2,12.15,61.05200000000008,79,41,2.75,AO,2020-08-20 19:12:31
haines junction,60.75,-137.51,54.06800000000008,76,100,1.12,CA,2020-08-20 19:12:31
souillac,-20.52,57.52,66.2,77,20,3.6,MU,2020-08-20 19:12:31
yumen,40.28,97.2,66.93800000000005,54,99,4.72,CN,2020-08-20 19:12:31
verdun,49.25,5.33,78.00800000000001,51,76,2.24,FR,2020-08-20 19:12:32
touros,-5.2,-35.46,77.0,88,11,3.6,BR,2020-08-20 19:12:32
khatanga,71.97,102.5,47.858000000000004,58,0,6.72,RU,2020-08-20 19:12:32
awjilah,29.11,21.29,80.02400000000002,50,0,5.64,LY,2020-08-20 19:12:32
dhidhdhoo,6.88,73.1,82.25600000000003,77,100,5.02,MV,2020-08-20 19:12:33
ponta delgada,37.73,-25.67,71.6,94,40,4.1,PT,2020-08-20 19:12:33
dongsheng,39.82,109.98,62.07800000000007,80,3,7.04,CN,2020-08-20 19:12:33
dunedin,-45.87,170.5,50.0,90,100,0.89,NZ,2020-08-20 19:08:21
provideniya,64.38,-173.3,55.4,66,84,7,RU,2020-08-20 19:12:34
ekibastuz,51.67,75.37,54.89600000000005,55,25,5.74,KZ,2020-08-20 19:12:34
chuy,-33.7,-53.46,39.86600000000001,73,35,3.45,UY,2020-08-20 19:12:35
shimoda,34.67,138.95,86.0,74,20,3.6,JP,2020-08-20 19:12:35
tasiilaq,65.61,-37.64,42.8,75,0,1,GL,2020-08-20 19:12:35
huangchuan,32.13,115.04,74.24600000000005,96,100,3.84,CN,2020-08-20 19:12:35
dandong,40.13,124.39,69.63800000000005,87,100,1.57,CN,2020-08-20 19:12:36
kabanjahe,3.1,98.49,78.8,94,40,2.1,ID,2020-08-20 19:12:36
saskylakh,71.92,114.08,42.92600000000009,64,74,3.22,RU,2020-08-20 19:12:36
kiunga,-6.12,141.29,75.92000000000006,89,85,1.16,PG,2020-08-20 19:12:36
koroni,36.8,21.95,78.00800000000001,88,0,2.1,GR,2020-08-20 19:12:36
saint-philippe,-21.36,55.77,68.0,52,19,4.1,RE,2020-08-20 19:12:37
nokaneng,-19.67,22.27,50.55800000000001,43,51,2.63,BW,2020-08-20 19:12:37
oyama,36.3,139.8,93.99199999999999,83,20,1.5,JP,2020-08-20 19:12:37
aden,12.78,45.04,86.16200000000006,67,18,0.82,YE,2020-08-20 19:10:40
malanje,-9.54,16.34,61.412000000000056,91,56,3.01,AO,2020-08-20 19:12:38
rio grande,-32.03,-52.1,42.008,78,41,4.56,BR,2020-08-20 19:12:38
korem,12.51,39.52,58.352000000000075,86,54,0.25,ET,2020-08-20 19:12:38
narsipatnam,17.67,82.62,78.8,94,90,5.1,IN,2020-08-20 19:09:03
chokurdakh,70.63,147.92,39.16400000000003,79,99,1.42,RU,2020-08-20 19:12:39
zorgo,12.25,-0.62,77.93600000000006,81,81,2.36,BF,2020-08-20 19:12:39
arraial do cabo,-22.97,-42.03,68.0,94,90,2.6,BR,2020-08-20 19:12:39
coihaique,-45.58,-72.07,44.6,65,94,2.1,CL,2020-08-20 19:12:39
kaeo,-35.1,173.78,61.79000000000002,68,0,6.36,NZ,2020-08-20 19:12:40
hamilton,39.18,-84.53,78.99800000000002,41,20,3.1,US,2020-08-20 19:12:40
nexo,55.06,15.13,68.0,77,89,4.1,DK,2020-08-20 19:12:40
hithadhoo,-0.6,73.08,82.25600000000003,76,69,3.47,MV,2020-08-20 19:12:40
bluff,-46.6,168.33,48.00200000000008,98,100,1.34,NZ,2020-08-20 19:12:41
guane,22.2,-84.09,82.32800000000006,73,41,1.21,CU,2020-08-20 19:12:41
tsabong,-26.02,22.4,44.6,47,0,3.67,BW,2020-08-20 19:12:41
clyde river,70.47,-68.59,46.4,93,75,5.7,CA,2020-08-20 19:12:41
ilulissat,69.22,-51.1,42.8,70,9,1,GL,2020-08-20 19:12:41
yulara,-25.24,130.99,53.6,40,0,2.6,AU,2020-08-20 19:12:49
cap malheureux,-19.98,57.61,69.00800000000001,60,0,1.34,MU,2020-08-20 19:12:49
conde,-7.26,-34.91,75.2,94,40,4.1,BR,2020-08-20 19:12:49
puerto escondido,15.85,-97.07,84.2,62,75,0.59,MX,2020-08-20 19:12:49
torbay,47.67,-52.73,64.99400000000007,72,5,7.2,CA,2020-08-20 19:12:50
mayo,38.89,-76.51,78.8,65,1,1.5,US,2020-08-20 19:12:50
sao joao da barra,-21.64,-41.05,71.924,76,82,9.26,BR,2020-08-20 19:12:52
rocha,-34.48,-54.33,36.62600000000009,81,1,2.65,UY,2020-08-20 19:12:52
aqtobe,50.28,57.21,48.2,81,6,2,KZ,2020-08-20 19:12:52
atuona,-9.8,-139.03,78.81800000000008,76,74,8.59,PF,2020-08-20 19:12:52
porto novo,6.5,2.6,75.2,94,40,4.1,BJ,2020-08-20 19:12:53
charlestown,-32.95,151.67,62.00600000000003,58,0,4.47,AU,2020-08-20 19:12:53
port hardy,50.7,-127.42,62.6,93,90,3.1,CA,2020-08-20 19:12:53
puli,23.97,120.97,86.0,83,40,2.1,TW,2020-08-20 19:12:53
ayan,56.45,138.17,59.378000000000064,61,27,4.96,RU,2020-08-20 19:12:54
waddan,29.16,16.14,74.48000000000005,66,0,3.93,LY,2020-08-20 19:12:54
hobart,-42.88,147.33,46.99400000000007,65,20,3.6,AU,2020-08-20 19:12:43
kindu,-2.95,25.95,74.49800000000002,81,80,0.84,CD,2020-08-20 19:12:54
kruisfontein,-34,24.73,53.00600000000003,85,94,3.02,ZA,2020-08-20 19:12:55
saldanha,-33.01,17.94,50.0,87,19,1.5,ZA,2020-08-20 19:12:55
matara,5.95,80.54,78.31400000000004,87,97,3.83,LK,2020-08-20 19:12:55
yellowknife,62.46,-114.35,59.0,51,20,1.5,CA,2020-08-20 19:12:00
ghorawal,24.77,82.78,76.38800000000005,90,95,7.35,IN,2020-08-20 19:12:56
upernavik,72.79,-56.15,45.733999999999995,69,77,0.62,GL,2020-08-20 19:12:56
launceston,-41.45,147.17,44.99600000000005,75,40,6.7,AU,2020-08-20 19:12:56
westport,41.14,-73.36,75.2,47,1,2.1,US,2020-08-20 19:09:05
hermanus,-34.42,19.23,48.00200000000008,93,0,2.53,ZA,2020-08-20 19:12:57
qaanaaq,77.48,-69.36,43.088000000000044,78,100,1.57,GL,2020-08-20 19:12:57
luanda,-8.84,13.23,69.8,94,20,1.5,AO,2020-08-20 19:02:13
zhongshu,24.52,103.77,63.860000000000085,88,73,0.93,CN,2020-08-20 19:12:57
cabo san lucas,22.89,-109.91,78.99800000000002,88,90,5.1,MX,2020-08-20 19:09:07
ornskoldsvik,63.29,18.72,60.8,93,0,2.1,SE,2020-08-20 19:12:58
ribeira grande,38.52,-28.7,71.6,83,75,4.1,PT,2020-08-20 19:12:58
kavieng,-2.57,150.8,84.308,72,22,3.98,PG,2020-08-20 19:12:58
avarua,-21.21,-159.78,78.8,78,8,9.8,CK,2020-08-20 19:08:45
matagami,49.75,-77.63,62.6,72,1,1.93,CA,2020-08-20 19:12:59
sylacauga,33.17,-86.25,78.00800000000001,83,90,2.1,US,2020-08-20 19:11:27
maun,-19.98,23.42,54.21200000000006,43,53,2.9,BW,2020-08-20 19:12:59
irtyshskiy,58.33,68.13,48.92000000000006,95,93,1.94,RU,2020-08-20 19:13:00
solenzo,12.18,-4.08,73.67000000000006,89,89,3.16,BF,2020-08-20 19:13:01
dingle,11,122.67,80.33000000000004,84,98,2.01,PH,2020-08-20 19:13:01
peto,20.13,-88.92,82.4,73,64,1.97,MX,2020-08-20 19:13:01
port elizabeth,-33.92,25.57,53.6,87,20,2.6,ZA,2020-08-20 19:13:02
luebo,-5.35,21.42,75.83000000000004,80,100,0.64,CD,2020-08-20 19:13:02
lata,40.16,-8.33,66.99199999999999,98,90,0.46,PT,2020-08-20 19:13:02
kuna,43.49,-116.42,93.00200000000008,17,1,2.6,US,2020-08-20 19:13:03
soma,39.19,27.61,71.6,72,0,0.5,TR,2020-08-20 19:13:03
kavaratti,10.57,72.64,82.4,80,100,6.1,IN,2020-08-20 19:13:03
lulea,65.58,22.15,59.0,100,30,3.1,SE,2020-08-20 19:13:03
cayenne,4.93,-52.33,78.8,88,22,7.03,GF,2020-08-20 19:13:03
kodiak,57.79,-152.41,75.2,38,1,5.7,US,2020-08-20 19:13:04
mayumba,-3.43,10.66,72.24800000000002,87,100,2.3,GA,2020-08-20 19:13:04
balaipungut,1.05,101.28,75.2,94,20,1,ID,2020-08-20 19:10:38
bengkulu,-3.8,102.27,76.51400000000004,80,78,2.03,ID,2020-08-20 19:13:05
beringovskiy,63.05,179.32,56.69600000000005,64,62,6.44,RU,2020-08-20 19:13:05
yerbogachen,61.28,108.01,58.11800000000009,85,10,3.49,RU,2020-08-20 19:13:05
gawler,-34.6,138.73,53.00600000000003,80,98,4.47,AU,2020-08-20 19:13:05
yanam,16.73,82.22,75.72200000000004,91,100,3.21,IN,2020-08-20 19:13:06
constitucion,-35.33,-72.42,51.08000000000004,72,0,2.21,CL,2020-08-20 19:13:06
ongandjera,-17.88,15.07,56.89400000000008,25,85,3.51,NA,2020-08-20 19:13:06
abnub,27.27,31.15,78.8,41,4,4.1,EG,2020-08-20 19:13:07
marrakesh,31.63,-8.01,82.4,34,0,1.5,MA,2020-08-20 19:13:07
katsuura,35.13,140.3,89.00600000000003,79,20,3.6,JP,2020-08-20 19:13:07
paciran,-6.88,112.38,79.05200000000008,78,3,5.28,ID,2020-08-20 19:13:07
namatanai,-3.67,152.43,84.74000000000002,68,3,3.08,PG,2020-08-20 19:13:08
iquitos,-3.75,-73.25,78.8,88,40,1.5,PE,2020-08-20 19:10:16
cidreira,-30.18,-50.21,47.06600000000001,62,7,6.38,BR,2020-08-20 19:13:08
kralendijk,12.15,-68.27,84.2,79,15,6.2,BQ,2020-08-20 19:13:08
grindavik,63.84,-22.43,50.0,71,100,5.7,IS,2020-08-20 19:13:08
turukhansk,65.82,87.98,55.814000000000036,90,73,2.88,RU,2020-08-20 19:13:09
olden,61.84,6.81,62.00600000000003,89,85,0.45,NO,2020-08-20 19:13:09
canakkale,40.08,26.83,71.6,56,0,2.1,TR,2020-08-20 19:13:09
usinsk,65.99,57.53,47.67800000000007,96,4,6.02,RU,2020-08-20 19:13:09
suraabad,40.82,49.47,69.8,83,0,2.1,AZ,2020-08-20 19:13:10
port hedland,-20.32,118.57,66.2,34,0,2.6,AU,2020-08-20 19:13:10
tuatapere,-46.13,167.68,48.00200000000008,98,100,1.34,NZ,2020-08-20 19:13:10
rapid valley,44.06,-103.15,87.8,25,1,4.1,US,2020-08-20 19:13:10
chardara,41.25,67.97,68.75600000000003,36,0,3.96,KZ,2020-08-20 19:13:11
port macquarie,-31.43,152.92,62.99600000000005,50,0,1.34,AU,2020-08-20 19:13:11
richards bay,-28.78,32.04,57.992,88,1,1.81,ZA,2020-08-20 19:13:11
mazatlan,23.22,-106.42,87.8,66,75,1.5,MX,2020-08-20 19:13:11
sitka,57.05,-135.33,69.8,52,75,4.6,US,2020-08-20 19:13:12
alta floresta,-9.88,-56.09,81.42800000000007,30,23,0.98,BR,2020-08-20 19:13:12
south lake tahoe,38.93,-119.98,82.4,18,90,6.7,US,2020-08-20 19:01:56
hambantota,6.12,81.12,79.26800000000009,83,96,6.15,LK,2020-08-20 19:13:12
laguna,38.42,-121.42,91.4,25,90,2.1,US,2020-08-20 19:13:13
nago,26.59,127.98,84.2,89,1,2.6,JP,2020-08-20 19:13:13
castro,-24.79,-50.01,51.47600000000009,96,100,1.34,BR,2020-08-20 19:13:13
wapi pathum,15.85,103.38,75.2,100,75,1.5,TH,2020-08-20 19:13:13
quelimane,-17.88,36.89,73.4,88,12,1.66,MZ,2020-08-20 19:13:14
vostok,46.49,135.88,61.17800000000007,57,60,2.48,RU,2020-08-20 19:13:14
moacsa,45.87,25.97,60.998000000000026,10,14,11.18,RO,2020-08-20 19:13:14
inhambane,-23.86,35.38,66.72200000000004,77,59,2.31,MZ,2020-08-20 19:13:15
oistins,13.07,-59.53,80.6,88,75,5.1,BB,2020-08-20 19:13:15
villa nueva,14.53,-90.59,66.2,88,90,2.1,GT,2020-08-20 19:13:15
hofn,64.25,-15.21,48.938000000000045,64,100,9.35,IS,2020-08-20 19:13:16
shestakovo,56.49,103.96,60.51200000000006,67,49,1.89,RU,2020-08-20 19:13:16
eyl,7.98,49.82,76.208,76,0,9.08,SO,2020-08-20 19:13:16
te anau,-45.42,167.72,51.51200000000006,74,95,1.12,NZ,2020-08-20 19:13:16
muisne,0.6,-80.03,75.2,83,90,3.6,EC,2020-08-20 19:13:17
fare,-16.7,-151.02,78.31400000000004,77,10,10.9,PF,2020-08-20 19:13:17
mahebourg,-20.41,57.7,66.2,77,20,3.6,MU,2020-08-20 19:13:17
apac,1.98,32.54,64.92200000000004,94,93,1.39,UG,2020-08-20 19:13:18
hasaki,35.73,140.83,89.00600000000003,74,40,1.5,JP,2020-08-20 19:13:18
pacific grove,36.62,-121.92,71.6,56,90,3.6,US,2020-08-20 19:12:31
pochutla,15.74,-96.47,82.99400000000007,74,75,1.46,MX,2020-08-20 19:13:19
ahvaz,31.32,48.67,89.6,29,0,3.1,IR,2020-08-20 19:11:45
el real de santa maria,8.11,-77.73,75.61400000000003,94,100,0.99,PA,2020-08-20 19:13:19
tiarei,-17.53,-149.33,80.6,69,75,1.5,PF,2020-08-20 19:13:20
ambilobe,-13.2,49.05,66.29000000000002,86,66,1.29,MG,2020-08-20 19:13:20
igrim,63.19,64.42,51.044000000000075,98,26,2.56,RU,2020-08-20 19:13:20
bathsheba,13.22,-59.52,80.6,88,75,5.1,BB,2020-08-20 19:12:40
burla,21.5,83.87,75.66800000000009,95,100,3.68,IN,2020-08-20 19:13:21
neuquen,-38.95,-68.06,53.6,46,0,2.6,AR,2020-08-20 19:12:12
naze,28.37,129.48,86.0,79,20,1,JP,2020-08-20 19:13:21
benghazi,32.12,20.07,79.03399999999999,72,0,7.8,LY,2020-08-20 19:13:21
tazovskiy,67.47,78.7,54.37400000000001,90,100,2.49,RU,2020-08-20 19:13:21
piopio,-38.47,175.02,60.998000000000026,64,52,2.24,NZ,2020-08-20 19:12:35
muros,42.78,-9.06,66.99199999999999,84,41,7.15,ES,2020-08-20 19:13:22
lebu,-37.62,-73.65,50.05400000000005,85,0,8.49,CL,2020-08-20 19:13:22
vigrestad,58.57,5.7,64.00400000000005,99,93,5.67,NO,2020-08-20 19:13:22
santa rosa,14.31,121.11,82.00400000000005,88,86,1,PH,2020-08-20 19:13:23
hami,42.8,93.45,75.56000000000009,32,37,1.49,CN,2020-08-20 19:13:23
talaya,61.38,152.75,37.18399999999999,88,100,4.49,RU,2020-08-20 19:13:23
wagar,16.15,36.2,88.79000000000002,53,93,4.7,SD,2020-08-20 19:13:23
vila,42.03,-8.16,55.004000000000055,90,41,1.34,PT,2020-08-20 19:13:24
pevek,69.7,170.31,37.544000000000075,86,100,4.85,RU,2020-08-20 19:13:24
east london,-33.02,27.91,60.63800000000005,71,100,5.38,ZA,2020-08-20 19:13:24
kirakira,-10.45,161.92,84.00200000000008,73,6,2.42,SB,2020-08-20 19:13:24
mar del plata,-38,-57.56,48.992,52,0,2.1,AR,2020-08-20 19:13:15
matay,28.42,30.78,77.18000000000004,50,0,3.82,EG,2020-08-20 19:13:25
bilibino,68.05,166.44,43.28600000000007,84,100,1.78,RU,2020-08-20 19:13:25
terra santa,-2.1,-56.49,83.516,42,55,1.46,BR,2020-08-20 19:13:25
carnarvon,-24.87,113.63,62.6,88,99,3.1,AU,2020-08-20 19:13:26
half moon bay,37.46,-122.43,84.99199999999999,34,20,8.2,US,2020-08-20 19:13:26
jalu,29.03,21.55,80.22200000000004,51,0,6.43,LY,2020-08-20 19:13:26
nishihara,26.18,127.76,87.8,74,20,3.6,JP,2020-08-20 19:13:26
luwuk,-0.95,122.79,79.30400000000006,70,81,2.44,ID,2020-08-20 19:13:27
bubaque,11.28,-15.83,79.41200000000006,86,98,10.91,GW,2020-08-20 19:13:27
saint-pierre,-21.34,55.48,68.0,52,15,4.1,RE,2020-08-20 19:13:27
guilin,25.28,110.29,75.2,94,20,0.21,CN,2020-08-20 19:13:27
megion,61.03,76.11,50.0,100,90,3,RU,2020-08-20 19:13:28
barcelona,41.39,2.16,80.6,83,20,2.6,ES,2020-08-20 19:02:14
antiguo morelos,22.55,-99.08,96.00800000000001,46,3,1.79,MX,2020-08-20 19:13:28
ahipara,-35.17,173.17,60.49400000000007,74,7,7.02,NZ,2020-08-20 19:13:28
apolda,51.02,11.5,71.99600000000005,77,97,2.02,DE,2020-08-20 19:13:29
dudinka,69.41,86.18,57.2,58,62,5,RU,2020-08-20 19:13:29
gary,41.59,-87.35,82.4,39,5,1.5,US,2020-08-20 19:13:29
new norfolk,-42.78,147.06,46.004000000000055,81,86,1.34,AU,2020-08-20 19:13:29
tashla,51.77,52.74,51.27800000000006,82,0,2.57,RU,2020-08-20 19:13:30
baracoa,20.35,-74.5,80.78000000000004,82,67,2.33,CU,2020-08-20 19:13:30
puerto ayora,-0.74,-90.35,66.00200000000008,89,68,3.13,EC,2020-08-20 19:13:30
sidney,-33.87,151.21,62.00600000000003,47,3,7.2,AU,2020-08-20 19:12:02
shitanjing,39.23,106.34,64.00400000000005,75,64,10.23,CN,2020-08-20 19:13:31
fairbanks,64.84,-147.72,71.00600000000003,77,75,1.81,US,2020-08-20 19:11:17
shetpe,44.17,52.12,73.27400000000002,35,0,3.5,KZ,2020-08-20 19:13:32
longyearbyen,78.22,15.64,41.12600000000009,83,98,2.67,SJ,2020-08-20 19:13:32
lodwar,3.12,35.6,81.17600000000009,50,46,9.98,KE,2020-08-20 19:13:32
bismarck,46.81,-100.78,96.8,30,1,5.7,US,2020-08-20 19:10:01
kahului,20.89,-156.47,86.0,62,40,13.4,US,2020-08-20 19:13:33
egvekinot,66.32,-179.17,52.070000000000064,71,65,4.61,RU,2020-08-20 19:13:33
lompoc,34.64,-120.46,68.0,64,90,6.2,US,2020-08-20 19:13:33
urvan,43.49,43.76,66.2,68,75,1,RU,2020-08-20 19:13:34
meulaboh,4.14,96.13,78.26000000000008,85,100,1.51,ID,2020-08-20 19:13:34
vilyuysk,63.76,121.62,55.31000000000008,54,15,1.15,RU,2020-08-20 19:13:34
cody,44.53,-109.06,91.00400000000005,30,1,3.6,US,2020-08-20 19:08:36
seoul,37.57,126.98,80.6,78,90,1.16,KR,2020-08-20 19:05:52
goderich,43.75,-81.72,75.99199999999999,63,1,0.45,CA,2020-08-20 19:13:35
abu samrah,35.3,37.18,66.88399999999999,81,0,4.44,SY,2020-08-20 19:13:35
auki,-8.77,160.7,86.41400000000003,65,4,0.77,SB,2020-08-20 19:13:35
nizhniy tsasuchey,50.52,115.13,64.59800000000003,70,31,1.83,RU,2020-08-20 19:13:36
alvaraes,-3.22,-64.8,87.8,66,40,1.5,BR,2020-08-20 19:13:36
harda,22.33,77.1,74.78600000000007,95,100,4.1,IN,2020-08-20 19:13:36
troitsko-pechorsk,62.71,56.2,52.628000000000064,95,4,4.12,RU,2020-08-20 19:13:36
sambava,-14.27,50.17,70.21400000000003,88,73,3.42,MG,2020-08-20 19:13:37
nanortalik,60.14,-45.24,45.194000000000074,74,0,0.37,GL,2020-08-20 19:13:37
olafsvik,64.89,-23.71,48.812000000000054,79,0,8.31,IS,2020-08-20 19:13:37
kayerkan,69.35,87.76,57.2,58,50,5,RU,2020-08-20 19:13:37
mandera,3.94,41.87,76.06400000000004,66,63,8,KE,2020-08-20 19:13:38
vung tau,10.35,107.08,81.01400000000004,83,86,3.01,VN,2020-08-20 19:13:38
pueblo nuevo,23.38,-105.38,68.43200000000002,90,95,1.66,MX,2020-08-20 19:13:38
paita,-5.09,-81.11,63.338000000000044,78,100,7.21,PE,2020-08-20 19:13:38
tondon,10.37,-13.35,73.11200000000005,94,100,1.06,GN,2020-08-20 19:13:39
dali,25.7,100.18,61.628000000000064,82,40,0.18,CN,2020-08-20 19:13:39
thompson,55.74,-97.86,78.8,41,40,3.1,CA,2020-08-20 19:13:39
sandi,27.3,79.95,79.26800000000009,82,93,6.27,IN,2020-08-20 19:13:39
yinchuan,38.47,106.27,70.23200000000001,65,86,5.26,CN,2020-08-20 19:13:40
narsaq,60.92,-46.05,48.2,66,0,2.6,GL,2020-08-20 19:13:40
camana,-16.62,-72.71,59.63000000000004,79,71,4.56,PE,2020-08-20 19:13:40
boa vista,2.82,-60.67,89.6,55,20,2.1,BR,2020-08-20 19:12:40
hobyo,5.35,48.53,75.81200000000005,82,97,10.11,SO,2020-08-20 19:13:41
faya,18.39,42.45,71.6,43,60,2.01,SA,2020-08-20 19:13:41
jablah,35.36,35.93,73.4,83,40,3.1,SY,2020-08-20 19:13:41
aberdeen,57.14,-2.1,60.8,82,56,3.6,GB,2020-08-20 19:13:41
victoria,22.29,114.16,82.99400000000007,83,76,1.34,HK,2020-08-20 19:10:35
peleduy,59.63,112.74,59.88200000000002,86,96,3.36,RU,2020-08-20 19:13:42
johannesburg,-26.2,28.04,42.998000000000026,50,0,0.5,ZA,2020-08-20 19:13:43
znamenskoye,57.13,73.83,49.80200000000008,97,100,3.08,RU,2020-08-20 19:13:43
kaitangata,-46.28,169.85,51.008,85,100,0.89,NZ,2020-08-20 19:13:43
mitsamiouli,-11.38,43.28,76.06400000000004,68,48,2.19,KM,2020-08-20 19:13:43
den helder,52.96,4.76,71.99600000000005,94,90,5.1,NL,2020-08-20 19:10:00
vestmannaeyjar,63.44,-20.27,49.29800000000002,78,100,1.35,IS,2020-08-20 19:13:44
umm lajj,25.02,37.27,86.84600000000005,63,0,4.77,SA,2020-08-20 19:13:44
lorengau,-2.02,147.27,85.38800000000005,69,22,4.91,PG,2020-08-20 19:13:45
gimli,50.63,-96.99,87.00800000000001,99,17,3.86,CA,2020-08-20 19:13:45
ostroh,50.33,26.51,61.412000000000056,97,1,2.85,UA,2020-08-20 19:13:45
itarema,-2.92,-39.92,77.46800000000009,80,56,5.74,BR,2020-08-20 19:13:45
kondinskoye,59.65,67.41,52.610000000000085,95,74,3,RU,2020-08-20 19:13:46
damghan,36.17,54.35,74.192,45,0,0.97,IR,2020-08-20 19:13:46
grand gaube,-20.01,57.66,69.00800000000001,60,0,1.34,MU,2020-08-20 19:13:46
katangli,51.71,143.23,66.11000000000008,62,0,8,RU,2020-08-20 19:13:46
san patricio,19.22,-104.7,86.0,74,75,5.1,MX,2020-08-20 19:13:47
tatvan,38.51,42.28,61.952000000000076,31,0,1.73,TR,2020-08-20 19:13:47
manthani,18.65,79.67,75.29000000000002,93,100,3.51,IN,2020-08-20 19:13:47
nouadhibou,20.93,-17.03,73.4,78,0,0.5,MR,2020-08-20 19:13:47
erenhot,43.65,111.98,64.67000000000006,48,0,5.16,CN,2020-08-20 19:13:47
baykit,61.67,96.37,55.07600000000009,85,10,1.06,RU,2020-08-20 19:13:48
erie,42.77,-78.67,77.0,44,20,3.1,US,2020-08-20 19:12:09
fortuna,40.6,-124.16,75.99199999999999,26,1,3.58,US,2020-08-20 19:13:48
mumford,5.26,-0.76,74.37200000000004,90,74,5.95,GH,2020-08-20 19:13:48
olga,43.74,135.29,69.35,54,94,1.2,RU,2020-08-20 19:13:49
salalah,17.02,54.09,78.8,94,90,2.3,OM,2020-08-20 19:13:49
usakos,-22,15.6,55.67000000000006,25,0,4.06,NA,2020-08-20 19:13:49
cururupu,-1.83,-44.87,76.01000000000008,86,36,2.13,BR,2020-08-20 19:13:49
komsomolskiy,40.43,71.72,68.0,56,64,2.1,UZ,2020-08-20 19:13:50
verkhnevilyuysk,63.45,120.32,54.23000000000004,59,29,0.48,RU,2020-08-20 19:12:05
leningradskiy,69.38,178.42,47.06600000000001,79,87,3.18,RU,2020-08-20 19:13:50
tautira,-17.73,-149.15,80.6,69,75,1.5,PF,2020-08-20 19:13:50
daniel flores,9.34,-83.67,71.6,87,99,1.41,CR,2020-08-20 19:13:51
ajdabiya,30.76,20.23,73.02200000000003,79,0,4.34,LY,2020-08-20 19:13:51
bandarbeyla,9.49,50.81,76.28000000000004,79,32,12.55,SO,2020-08-20 19:13:51
tiksi,71.69,128.87,39.86600000000001,87,99,3.4,RU,2020-08-20 19:13:51
korla,41.76,86.15,68.81000000000009,62,44,7.22,CN,2020-08-20 19:13:52
rio gallegos,-51.62,-69.22,44.6,70,100,7.7,AR,2020-08-20 19:13:52
hualmay,-11.1,-77.61,60.47600000000009,83,17,4.47,PE,2020-08-20 19:13:52
pangnirtung,66.15,-65.71,54.57200000000004,59,27,1.27,CA,2020-08-20 19:13:52
mehamn,71.04,27.85,46.67000000000006,83,11,2.72,NO,2020-08-20 19:13:53
lincoln,40.8,-96.67,86.0,45,1,5.7,US,2020-08-20 19:13:53
atotonilco el grande,20.28,-98.67,65.69600000000005,63,99,2.49,MX,2020-08-20 19:13:53
klaksvik,62.23,-6.59,51.8,100,20,1.5,FO,2020-08-20 19:13:53
gull lake,50.1,-108.48,89.6,21,20,4.1,CA,2020-08-20 19:13:53
monrovia,6.3,-10.8,77.0,88,75,5.29,LR,2020-08-20 19:09:20
hastings,50.86,0.57,66.99199999999999,94,66,7.15,GB,2020-08-20 19:13:54
karagaylinskiy,54.17,86.55,53.582000000000015,82,89,0.21,RU,2020-08-20 19:13:54
surt,31.21,16.59,78.83600000000007,78,0,5.05,LY,2020-08-20 19:13:55
paamiut,61.99,-49.67,44.61800000000009,78,0,2.29,GL,2020-08-20 19:13:55
touba,8.28,-7.68,70.03399999999999,94,61,3.36,CI,2020-08-20 19:13:55
moose factory,51.26,-80.61,55.4,71,1,4.1,CA,2020-08-20 19:13:55
torit,4.41,32.57,68.91800000000009,91,34,0.78,SS,2020-08-20 19:13:56
bonthe,7.53,-12.51,76.208,87,100,4.42,SL,2020-08-20 19:13:56
otane,-39.88,176.63,62.20400000000005,51,31,4.79,NZ,2020-08-20 19:13:56
kualakapuas,-3.01,114.39,75.2,94,20,2.14,ID,2020-08-20 19:13:57
foumban,5.73,10.9,63.158,100,100,0.44,CM,2020-08-20 19:13:57
sola,-13.88,167.55,81.28399999999999,84,6,4.93,VU,2020-08-20 19:13:57
deputatskiy,69.3,139.9,39.110000000000085,73,85,1.11,RU,2020-08-20 19:13:58
lorient,47.83,-3.25,66.99199999999999,77,30,8.2,FR,2020-08-20 19:13:58
lavrentiya,65.58,-171,52.682000000000016,69,42,2.87,RU,2020-08-20 19:13:58
jesus carranza,17.43,-95.03,82.88600000000007,84,45,2.6,MX,2020-08-20 19:13:59
gijon,43.54,-5.66,66.99199999999999,100,20,0.5,ES,2020-08-20 19:13:59
poum,-20.23,164.02,71.708,65,0,1.67,NC,2020-08-20 19:13:59
cap-aux-meules,47.38,-61.86,64.4,63,20,8.7,CA,2020-08-20 19:13:59
snezhnogorsk,69.19,33.25,51.8,93,75,2,RU,2020-08-20 19:13:59
alofi,-19.06,-169.92,84.2,74,75,3.6,NU,2020-08-20 19:14:00
bolanos de calatrava,38.91,-3.66,77.0,33,4,2.68,ES,2020-08-20 19:14:00
tanete,-3.94,119.78,79.12400000000001,71,8,3.45,ID,2020-08-20 19:14:00
gat,31.61,34.76,75.00200000000008,76,0,1.71,IL,2020-08-20 19:14:01
kathu,7.92,98.33,86.0,94,40,5,TH,2020-08-20 19:14:01
kattivakkam,13.22,80.32,82.4,83,75,2.1,IN,2020-08-20 19:14:01
alugan,12.22,125.48,80.96000000000008,79,100,1.55,PH,2020-08-20 19:14:02
mount gambier,-37.83,140.77,46.4,75,75,8.7,AU,2020-08-20 19:14:02
valparaiso,-33.04,-71.63,51.008,93,0,2.94,CL,2020-08-20 19:13:53
geraldton,-28.77,114.6,53.6,76,100,4.1,AU,2020-08-20 19:14:02
sindor,62.86,51.89,53.20400000000005,91,57,3.76,RU,2020-08-20 19:14:03
ingham,42.6,-84.38,78.8,50,1,3.12,US,2020-08-20 19:14:03
gabu,12.28,-14.22,73.13000000000004,92,95,2.4,GW,2020-08-20 19:14:03
santa maria,-29.68,-53.81,42.8,56,20,1.5,BR,2020-08-20 19:11:29
oktyabrskoye,43.06,44.74,60.8,93,1,2,RU,2020-08-20 19:14:04
bloemfontein,-29.12,26.21,30.2,50,0,2.6,ZA,2020-08-20 19:14:04
quilmana,-12.95,-76.38,61.610000000000085,73,8,1.62,PE,2020-08-20 19:14:05
prince rupert,54.32,-130.32,60.8,77,90,7.2,CA,2020-08-20 19:14:05
ciudad bolivar,8.12,-63.55,85.64000000000001,63,53,0.87,VE,2020-08-20 19:14:05
san isidro,-12.12,-77.05,60.8,82,90,5.1,PE,2020-08-20 19:14:05
oranjemund,-28.55,16.43,53.780000000000044,63,0,4.27,NA,2020-08-20 19:14:06
ancud,-41.87,-73.82,48.00200000000008,93,90,2.6,CL,2020-08-20 19:13:08
husavik,66.04,-17.34,46.4,75,37,1,IS,2020-08-20 19:14:06
la libertad,-2.23,-80.9,66.2,88,75,3.1,EC,2020-08-20 19:14:07
whitehorse,60.72,-135.05,57.2,62,90,2.6,CA,2020-08-20 19:10:54
bambous virieux,-20.34,57.76,69.00800000000001,77,20,3.6,MU,2020-08-20 19:14:07
tortoli,39.93,9.66,75.47000000000006,60,0,1.55,IT,2020-08-20 19:14:08
alikalia,9.17,-11.4,69.692,97,100,1.79,SL,2020-08-20 19:14:08
nara,34.69,135.8,91.00400000000005,74,40,1,JP,2020-08-20 19:14:08
umm kaddadah,13.6,26.69,82.22000000000006,54,83,3.76,SD,2020-08-20 19:14:08
port-cartier,50.03,-66.87,66.2,42,20,4.1,CA,2020-08-20 19:14:09
iqaluit,63.75,-68.51,46.4,87,75,1.96,CA,2020-08-20 19:14:09
kargasok,59.06,80.86,51.02600000000009,95,99,5.02,RU,2020-08-20 19:14:09
ulaangom,49.98,92.07,58.44199999999999,77,0,1.51,MN,2020-08-20 19:14:09
sivaki,52.63,126.75,62.564000000000036,69,37,2.6,RU,2020-08-20 19:14:10
semnan,35.57,53.4,86.0,23,0,1,IR,2020-08-20 19:14:10
beloha,-25.17,45.05,63.55400000000005,76,83,2.51,MG,2020-08-20 19:14:10
yar-sale,66.83,70.83,54.37400000000001,96,100,4.96,RU,2020-08-20 19:14:10
vila franca do campo,37.72,-25.43,71.6,94,40,4.1,PT,2020-08-20 19:14:11
qasigiannguit,68.82,-51.19,42.8,70,27,1,GL,2020-08-20 19:14:11
omsukchan,62.53,155.8,45.41000000000008,88,100,3.5,RU,2020-08-20 19:14:11
morant bay,17.88,-76.41,80.6,83,20,6.7,JM,2020-08-20 19:14:12
portland,45.52,-122.68,82.4,37,75,3.1,US,2020-08-20 19:08:53
christchurch,-43.53,172.63,51.008,100,95,3.6,NZ,2020-08-20 19:11:58
palmer,42.16,-72.33,75.2,41,20,3.1,US,2020-08-20 19:11:38
taikang,46.83,124.42,66.45200000000008,53,0,4.51,CN,2020-08-20 19:14:12
labuhan,-6.88,112.21,77.70200000000008,81,5,4.62,ID,2020-08-20 19:14:13
narasannapeta,18.42,84.05,77.684,90,100,5.72,IN,2020-08-20 19:14:13
sibu,2.3,111.82,75.2,94,20,0.5,MY,2020-08-20 19:14:13
molango,20.78,-98.72,66.03800000000004,83,100,1.72,MX,2020-08-20 19:14:13
taltal,-25.4,-70.48,53.978000000000065,70,13,1.97,CL,2020-08-20 19:14:14
seminole,28.71,-81.21,75.99199999999999,88,90,2.6,US,2020-08-20 19:14:14
chara,56.91,118.26,65.12000000000006,44,97,0.56,RU,2020-08-20 19:14:14
traralgon,-38.18,146.53,50.0,65,44,5.36,AU,2020-08-20 19:14:14
sioux lookout,50.1,-91.92,73.4,56,40,1,CA,2020-08-20 19:14:15
fraga,41.52,0.35,75.99199999999999,53,0,6.7,ES,2020-08-20 19:14:15
porto walter,-8.27,-72.74,82.83200000000002,62,26,1.14,BR,2020-08-20 19:14:15
palauig,15.44,119.9,80.816,79,100,3.69,PH,2020-08-20 19:14:15
imbituba,-28.24,-48.67,51.8,71,90,5.7,BR,2020-08-20 19:10:06
baiyin,36.56,104.21,62.6,72,90,2,CN,2020-08-20 19:14:16
tshikapa,-6.42,20.8,76.892,71,100,1.2,CD,2020-08-20 19:14:16
kaduna,10.52,7.44,72.33800000000005,89,100,4.06,NG,2020-08-20 19:10:39
zhangjiakou,40.81,114.88,63.37400000000001,82,22,2.18,CN,2020-08-20 19:09:36
huarmey,-10.07,-78.15,61.57400000000001,82,53,4.35,PE,2020-08-20 19:14:17
port blair,11.67,92.75,82.22000000000006,80,99,4.94,IN,2020-08-20 19:14:17
celestun,20.87,-90.4,81.608,81,87,4.79,MX,2020-08-20 19:14:17
honningsvag,70.98,25.97,50.54000000000002,82,44,1.53,NO,2020-08-20 19:14:17
calvinia,-31.47,19.78,46.58000000000004,55,62,2.44,ZA,2020-08-20 19:14:18
amberley,39.2,-84.43,78.00800000000001,55,51,2.46,US,2020-08-20 19:14:18
sakaiminato,35.55,133.23,82.4,88,75,1.5,JP,2020-08-20 19:14:18
juba,4.85,31.58,70.53800000000004,94,74,0.57,SS,2020-08-20 19:13:05
lasa,46.62,10.7,62.6,88,5,1.01,IT,2020-08-20 19:14:19
ocampo,21.65,-101.5,68.37800000000007,50,99,2.07,MX,2020-08-20 19:14:19
salamiyah,35.01,37.05,65.89400000000008,89,0,4.04,SY,2020-08-20 19:10:06
baijiantan,45.63,85.18,76.02800000000006,25,32,1.48,CN,2020-08-20 19:14:19
los llanos de aridane,28.66,-17.92,71.99600000000005,73,0,1.5,ES,2020-08-20 19:14:20
krasnoselkup,65.7,82.47,54.89600000000005,91,78,3.58,RU,2020-08-20 19:14:20
kidal,18.44,1.41,92.13800000000005,15,13,1.86,ML,2020-08-20 19:14:20
norman wells,65.28,-126.83,66.2,42,40,7.7,CA,2020-08-20 19:14:20
chapais,49.78,-74.85,60.8,77,90,4.1,CA,2020-08-20 19:14:21
maragogi,-9.01,-35.22,74.94800000000002,90,83,4.51,BR,2020-08-20 19:14:21
mananjary,-21.22,48.33,65.21000000000008,91,3,1.23,MG,2020-08-20 19:14:21
aswan,24.09,32.91,86.21600000000001,22,0,3.21,EG,2020-08-20 19:14:21
havre-saint-pierre,50.23,-63.6,61.23200000000001,58,64,5.31,CA,2020-08-20 19:14:21
ostrovnoy,68.05,39.51,55.09400000000007,79,52,6.64,RU,2020-08-20 19:14:22
adrar,20.5,-10.07,95.36000000000008,28,80,5.19,MR,2020-08-20 19:14:22
vyatskiye polyany,56.23,51.07,51.530000000000044,91,100,3.61,RU,2020-08-20 19:14:22
fengrun,39.83,118.12,69.89000000000001,56,0,1.49,CN,2020-08-20 19:14:23
poya,-21.35,165.15,76.19000000000003,56,8,2.78,NC,2020-08-20 19:14:23
camacha,33.08,-16.33,73.4,94,40,3.6,PT,2020-08-20 19:14:23
henties bay,-22.12,14.28,57.668000000000085,40,0,2.54,NA,2020-08-20 19:14:23
gimbi,9.17,35.83,58.24400000000007,100,100,1.51,ET,2020-08-20 19:14:24
tumpat,6.2,102.17,78.8,94,20,1,MY,2020-08-20 19:10:26
sukhobuzimskoye,56.5,93.27,51.8,93,43,1,RU,2020-08-20 19:14:24
wasilla,61.58,-149.44,69.8,68,1,1.5,US,2020-08-20 19:14:24
pangody,65.85,74.49,56.15600000000003,91,100,3.42,RU,2020-08-20 19:14:25
port hueneme,34.15,-119.2,84.2,69,1,4.1,US,2020-08-20 19:14:25
yatou,37.15,122.38,72.21200000000006,90,97,2.9,CN,2020-08-20 19:14:25
kochi,9.94,76.26,78.8,94,75,1.6,IN,2020-08-20 19:10:09
iwanai,42.97,140.51,73.25600000000003,47,65,1.2,JP,2020-08-20 19:14:25
sao filipe,14.9,-24.5,76.82000000000006,80,26,3.86,CV,2020-08-20 19:14:26
poopo,-18.37,-66.97,43.80800000000001,53,59,2.81,BO,2020-08-20 19:14:26
kalmunai,7.42,81.82,77.99000000000002,80,97,3.23,LK,2020-08-20 19:14:26
emba,48.83,58.14,55.43600000000007,67,2,1.32,KZ,2020-08-20 19:14:26
rogovatoye,51.23,38.38,56.80400000000005,72,80,4.53,RU,2020-08-20 19:14:27
baherden,38.44,57.43,78.94400000000007,21,0,3.4,TM,2020-08-20 19:14:27
raudeberg,61.99,5.14,62.99600000000005,87,84,1.57,NO,2020-08-20 19:14:27
biak,-0.91,122.88,78.40400000000005,73,79,2.82,ID,2020-08-20 19:14:28
san cristobal,7.77,-72.22,87.8,55,40,4.1,VE,2020-08-20 19:14:28
linxia,35.6,103.21,60.38600000000007,77,81,1.41,CN,2020-08-20 19:14:28
rabo de peixe,37.8,-25.58,71.6,94,40,4.1,PT,2020-08-20 19:14:29
zeya,53.75,127.27,63.98600000000007,63,22,1.15,RU,2020-08-20 19:14:29
grand island,40.92,-98.34,89.6,51,1,4.1,US,2020-08-20 19:10:46
kupang,-10.17,123.58,78.8,69,20,4.6,ID,2020-08-20 19:14:29
antofagasta,-23.65,-70.4,57.2,71,75,5.7,CL,2020-08-20 19:09:41
katherine,-14.47,132.27,82.4,51,18,1,AU,2020-08-20 19:14:30
coquimbo,-29.95,-71.34,50.0,87,0,3.6,CL,2020-08-20 19:14:30
suntar,62.14,117.63,54.37400000000001,60,51,1.42,RU,2020-08-20 19:14:30
southbridge,42.08,-72.03,75.00200000000008,58,15,2.25,US,2020-08-20 19:12:05
ixtapa,20.7,-105.2,87.8,70,75,3.6,MX,2020-08-20 19:14:31
sayyan,15.17,44.32,65.37200000000004,57,60,1.2,YE,2020-08-20 19:14:31
presidencia roque saenz pena,-26.79,-60.44,43.7,57,0,1.58,AR,2020-08-20 19:14:31
morgan city,29.7,-91.21,89.6,43,1,2.1,US,2020-08-20 19:14:32
shiraz,29.6,52.54,80.6,21,0,0.52,IR,2020-08-20 19:14:10
menfi,37.61,12.97,75.00200000000008,79,0,0.45,IT,2020-08-20 19:14:32
leninsk,48.71,45.2,62.6,42,100,5,RU,2020-08-20 19:14:32
lukang,24.06,120.44,86.0,83,40,2.1,TW,2020-08-20 19:14:33
peniche,39.36,-9.38,69.99800000000002,95,90,2.1,PT,2020-08-20 19:14:33
trujillo,-8.12,-79.03,61.66400000000003,84,88,3.21,PE,2020-08-20 19:14:33
kurumkan,54.3,110.3,63.30200000000008,74,50,0.64,RU,2020-08-20 19:14:33
boden,65.83,21.69,59.0,100,55,3.1,SE,2020-08-20 19:14:34
pinotepa nacional,16.32,-98.02,81.66200000000006,75,78,1.51,MX,2020-08-20 19:14:34
conneaut,41.95,-80.55,71.99600000000005,69,0,1.28,US,2020-08-20 19:13:35
hovd,48.01,91.64,56.444000000000074,76,0,0.33,MN,2020-08-20 19:14:34
belogorsk,50.92,128.46,61.91600000000001,75,12,3.52,RU,2020-08-20 19:14:35
hirara,24.8,125.28,78.8,94,75,3.1,JP,2020-08-20 19:14:35
nauta,-4.51,-73.58,82.49000000000002,67,41,0.5,PE,2020-08-20 19:14:35
marsh harbour,26.54,-77.06,83.87600000000009,77,71,5.65,BS,2020-08-20 19:14:35
naryan-mar,67.67,53.09,46.63399999999999,96,20,4.16,RU,2020-08-20 19:14:36
bahawalpur,29.4,71.68,84.99199999999999,67,96,3.44,PK,2020-08-20 19:14:36
kanel,15.49,-13.18,87.8,70,2,1,SN,2020-08-20 19:14:36
khani,41.96,42.96,71.6,94,75,4.1,GE,2020-08-20 19:14:37
moussoro,13.64,16.49,79.55600000000003,70,96,3.38,TD,2020-08-20 19:14:37
vrangel,42.73,133.08,68.72000000000006,55,100,0.46,RU,2020-08-20 19:14:37
opuwo,-18.06,13.84,52.772000000000034,32,66,2.89,NA,2020-08-20 19:14:38
saurimo,-9.66,20.39,74.58800000000005,27,88,1.8,AO,2020-08-20 19:14:38
gobabis,-22.45,18.97,43.91600000000001,36,0,3.9,NA,2020-08-20 19:14:38
thanh hoa,19.8,105.77,78.89000000000001,90,100,1.87,VN,2020-08-20 19:14:38
imeni poliny osipenko,52.42,136.49,68.75600000000003,58,13,3.84,RU,2020-08-20 19:12:06
shanhetun,44.7,127.2,62.88800000000005,68,14,2.11,CN,2020-08-20 19:14:39
codo,-4.46,-43.89,79.61000000000008,52,20,1.57,BR,2020-08-20 19:14:39
bagan,54.1,77.66,51.944000000000074,50,41,3.96,RU,2020-08-20 19:14:39
harer,9.31,42.13,61.17800000000007,88,74,3.37,ET,2020-08-20 19:14:40
villazon,-22.09,-65.59,39.30800000000001,49,0,1.12,BO,2020-08-20 19:14:40
mnogovershinnyy,53.94,139.92,60.69199999999999,57,5,6.7,RU,2020-08-20 19:14:40
cleethorpes,53.56,-0.03,62.6,77,48,5.1,GB,2020-08-20 19:14:40
vestmanna,62.16,-7.17,51.8,100,20,1.5,FO,2020-08-20 19:14:41
abapo,-18.83,-63.47,47.228000000000065,53,100,2.79,BO,2020-08-20 19:14:41
kristiansund,63.11,7.73,64.4,82,95,6.7,NO,2020-08-20 19:14:41
liverpool,53.41,-2.98,64.4,68,20,7.7,GB,2020-08-20 19:13:02
arman,59.7,150.17,55.58000000000004,57,93,7.15,RU,2020-08-20 19:14:42
ambon,-3.7,128.18,80.6,83,40,1.5,ID,2020-08-20 19:14:42
aklavik,68.22,-135.01,60.8,77,75,2.1,CA,2020-08-20 19:12:05
port lincoln,-34.73,135.87,52.30400000000005,63,68,10.95,AU,2020-08-20 19:14:42
micheweni,-4.97,39.83,74.55200000000008,83,57,4.22,TZ,2020-08-20 19:14:43
varna,43.22,27.92,66.2,88,18,2.6,BG,2020-08-20 19:14:43
saint-augustin,51.23,-58.65,58.49600000000005,81,81,4.99,CA,2020-08-20 19:14:43
neiafu,-18.65,-173.98,82.4,78,40,4.1,TO,2020-08-20 19:14:43
corinto,37.94,22.96,77.0,53,1,0.45,GR,2020-08-20 19:14:44
dergachi,51.23,48.77,53.65400000000005,63,12,2.52,RU,2020-08-20 19:14:44
saint-francois,46.42,3.91,80.6,42,10,4.6,FR,2020-08-20 19:14:44
koratagere,13.52,77.23,69.8,100,75,4.1,IN,2020-08-20 19:14:44
azogues,-2.73,-78.83,60.8,77,83,5.1,EC,2020-08-20 19:14:45
luderitz,-26.65,15.16,58.53200000000002,35,0,6.43,NA,2020-08-20 19:14:45
bedele,8.46,36.35,53.74400000000007,100,73,0.9,ET,2020-08-20 19:14:45
zonguldak,41.25,31.83,57.21800000000009,81,0,1.5,TR,2020-08-20 19:14:45
forrest city,35.01,-90.79,87.8,48,1,4.1,US,2020-08-20 19:14:46
iracoubo,5.48,-53.2,79.57400000000001,85,10,6.74,GF,2020-08-20 19:14:46
abha,18.22,42.51,71.6,43,39,2,SA,2020-08-20 19:14:46
aksarka,66.56,67.8,54.23000000000004,88,90,5.87,RU,2020-08-20 19:14:46
riyadh,24.69,46.72,84.2,21,0,1.5,SA,2020-08-20 19:11:50
broome,42.25,-75.83,69.8,46,1,2.6,US,2020-08-20 19:14:47
dagda,56.1,27.54,59.21600000000001,97,99,1.95,LV,2020-08-20 19:14:47
golden gate,26.19,-81.7,78.99800000000002,88,90,3.6,US,2020-08-20 19:14:47
borogontsy,62.67,131.17,51.49400000000007,46,0,2.54,RU,2020-08-20 19:12:06
san jose,37.34,-121.89,86.0,32,40,7.2,US,2020-08-20 19:11:07
ubatuba,-23.43,-45.07,62.6,82,90,1.5,BR,2020-08-20 19:14:48
great bend,38.36,-98.76,89.6,38,1,6.7,US,2020-08-20 19:11:02
cascais,38.7,-9.42,69.99800000000002,85,94,3.13,PT,2020-08-20 19:14:49
morondava,-20.28,44.28,69.11600000000001,79,0,2.44,MG,2020-08-20 19:14:49
huilong,31.81,121.66,84.00200000000008,84,44,1.79,CN,2020-08-20 19:14:49
manavalakurichi,8.13,77.3,80.6,83,40,2.1,IN,2020-08-20 19:14:50
inirida,3.87,-67.92,77.43200000000002,86,11,0.8,CO,2020-08-20 19:14:50
iralaya,15,-83.23,78.8,88,75,2.48,HN,2020-08-20 19:14:50
dom pedrito,-30.98,-54.67,37.4,78,0,2.18,BR,2020-08-20 19:14:50
tessalit,20.2,1.01,93.72200000000004,14,2,3.9,ML,2020-08-20 19:14:50
whyalla,-33.03,137.58,50.0,93,75,5.1,AU,2020-08-20 19:14:51
mogadishu,2.04,45.34,76.01000000000008,82,32,6.7,SO,2020-08-20 19:14:51
cartagena del chaira,1.33,-74.84,79.52000000000007,73,45,0.97,CO,2020-08-20 19:14:51
quatre cocos,-20.21,57.76,69.00800000000001,77,20,3.6,MU,2020-08-20 19:14:51
hervey bay,-25.3,152.85,68.0,32,52,2.1,AU,2020-08-20 19:14:52
praia da vitoria,38.73,-27.07,68.0,100,90,5.39,PT,2020-08-20 19:14:52
hachinohe,40.5,141.5,69.8,100,90,1.5,JP,2020-08-20 19:14:53
lensk,60.73,114.93,52.98800000000004,90,100,0.17,RU,2020-08-20 19:14:53
zhob,31.34,69.45,77.57600000000009,59,32,1.96,PK,2020-08-20 19:14:53
canandaigua,42.87,-77.29,69.99800000000002,51,8,1.4,US,2020-08-20 19:14:53
sungurlu,40.17,34.37,61.30400000000005,77,4,1.89,TR,2020-08-20 19:14:54
ekhabi,53.51,142.97,63.48200000000001,62,0,6.46,RU,2020-08-20 19:14:54
shieli,44.17,66.75,62.15,39,0,2.7,KZ,2020-08-20 19:14:54
